{
	"type": "FeatureCollection",
	"features": [
		{
			"type": "Feature",
			"properties": {
				"Name": "臺北市芝山社區公共托育家園",
				"Address": "臺北市士林區德行東路285號",
				"Call": "(02)28385506"
			},
			"geometry": {
				"type": "Point",
				"coordinates": [121.53643003736454, 25.110380013990394]
			}
		},
		{
			"type": "Feature",
			"properties": {
				"Name": "臺北市葫蘆社區公共托育家園",
				"Address": "臺北市士林區環河北路3段95號",
				"Call": "(02)28105878"
			},
			"geometry": {
				"type": "Point",
				"coordinates": [121.50703000906253, 25.083749995140238]
			}
		},
		{
			"type": "Feature",
			"properties": {
				"Name": "臺北市三玉社區公共托育家園",
				"Address": "臺北市士林區天母東路116號",
				"Call": "(02)28745376"
			},
			"geometry": {
				"type": "Point",
				"coordinates": [121.53732002784375, 25.11798998579289]
			}
		},
		{
			"type": "Feature",
			"properties": {
				"Name": "臺北市百齡社區公共托育家園",
				"Address": "臺北市士林區福港街205號",
				"Call": "(02)28815205"
			},
			"geometry": {
				"type": "Point",
				"coordinates": [121.51782003302026, 25.086190009064126]
			}
		},
		{
			"type": "Feature",
			"properties": {
				"Name": "臺北市蘭雅社區公共托育家園",
				"Address": "臺北市士林區磺溪街57號",
				"Call": "(02)28384896"
			},
			"geometry": {
				"type": "Point",
				"coordinates": [121.52315000143051, 25.108399998912773]
			}
		},
		{
			"type": "Feature",
			"properties": {
				"Name": "臺北市富安社區公共托育家園",
				"Address": "臺北市士林區延平北路8段135號",
				"Call": "(02)28117668"
			},
			"geometry": {
				"type": "Point",
				"coordinates": [121.4824299614329, 25.105850014419218]
			}
		},
		{
			"type": "Feature",
			"properties": {
				"Name": "臺北市士林社區公共托育家園",
				"Address": "臺北市士林區大東路165號",
				"Call": "(02)28833701"
			},
			"geometry": {
				"type": "Point",
				"coordinates": [121.52506996017183, 25.09282001065688]
			}
		},
		{
			"type": "Feature",
			"properties": {
				"Name": "臺北市文昌社區公共托育家園",
				"Address": "臺北市士林區文林路615巷20號",
				"Call": "(02)28318272"
			},
			"geometry": {
				"type": "Point",
				"coordinates": [121.52091002162587, 25.09960998087172]
			}
		},
		{
			"type": "Feature",
			"properties": {
				"Name": "臺北市大龍社區公共托育家園",
				"Address": "臺北市大同區哈密街47號",
				"Call": "(02)25950892"
			},
			"geometry": {
				"type": "Point",
				"coordinates": [121.51671999204751, 25.073399979189688]
			}
		},
		{
			"type": "Feature",
			"properties": {
				"Name": "臺北市永樂社區公共托育家園",
				"Address": "臺北市大同區延平北路2段266號",
				"Call": "(02)25530711"
			},
			"geometry": {
				"type": "Point",
				"coordinates": [121.51113001700077, 25.061689999448916]
			}
		},
		{
			"type": "Feature",
			"properties": {
				"Name": "臺北市忠孝社區公共托育家園",
				"Address": "臺北市大同區西寧北路32號",
				"Call": "(02)25527337"
			},
			"geometry": {
				"type": "Point",
				"coordinates": [121.50825996953449, 25.05121999655441]
			}
		},
		{
			"type": "Feature",
			"properties": {
				"Name": "臺北市成功社區公共托育家園",
				"Address": "臺北市大安區四維路198巷38弄10號",
				"Call": "(02)27070857"
			},
			"geometry": {
				"type": "Point",
				"coordinates": [121.5455000109717, 25.02651999472944]
			}
		},
		{
			"type": "Feature",
			"properties": {
				"Name": "臺北市族中社區公共托育家園",
				"Address": "臺北市大安區羅斯福路4段113巷13號",
				"Call": "(02)23770039"
			},
			"geometry": {
				"type": "Point",
				"coordinates": [121.53883002770078, 25.011179980361447]
			}
		},
		{
			"type": "Feature",
			"properties": {
				"Name": "臺北市大安社區公共托育家園",
				"Address": "臺北市大安區臥龍街129號",
				"Call": "(02)27374956"
			},
			"geometry": {
				"type": "Point",
				"coordinates": [121.54964997505289, 25.019499983181944]
			}
		},
		{
			"type": "Feature",
			"properties": {
				"Name": "臺北市懷中社區公共托育家園",
				"Address": "臺北市大安區忠孝東路3段248巷30號",
				"Call": "(02)27780378"
			},
			"geometry": {
				"type": "Point",
				"coordinates": [121.54120001082367, 25.04035998370516]
			}
		},
		{
			"type": "Feature",
			"properties": {
				"Name": "臺北市吉林社區公共托育家園",
				"Address": "臺北市中山區吉林路110號",
				"Call": "(02)25114698"
			},
			"geometry": {
				"type": "Point",
				"coordinates": [121.52997999523302, 25.053810004635622]
			}
		},
		{
			"type": "Feature",
			"properties": {
				"Name": "臺北市大直社區公共托育家園",
				"Address": "臺北市中山區大直街2號",
				"Call": "(02)25530158"
			},
			"geometry": {
				"type": "Point",
				"coordinates": [121.54644004141278, 25.080489979628695]
			}
		},
		{
			"type": "Feature",
			"properties": {
				"Name": "臺北市北安社區公共托育家園",
				"Address": "臺北市中山區明水路325號",
				"Call": "(02)25534390"
			},
			"geometry": {
				"type": "Point",
				"coordinates": [121.54162002799177, 25.077779984603538]
			}
		},
		{
			"type": "Feature",
			"properties": {
				"Name": "臺北市濱中社區公共托育家園",
				"Address": "臺北市中山區樂群二路262號",
				"Call": "(02)85015418"
			},
			"geometry": {
				"type": "Point",
				"coordinates": [121.56083000896535, 25.079549991097096]
			}
		},
		{
			"type": "Feature",
			"properties": {
				"Name": "臺北市濱江社區公共托育家園",
				"Address": "臺北市中山區樂群二路266巷99號",
				"Call": "(02)85012413"
			},
			"geometry": {
				"type": "Point",
				"coordinates": [121.56090997232167, 25.077199998813313]
			}
		},
		{
			"type": "Feature",
			"properties": {
				"Name": "臺北市南海社區公共托育家園",
				"Address": "臺北市中正區延平南路207之1號",
				"Call": "(02)23113689"
			},
			"geometry": {
				"type": "Point",
				"coordinates": [121.50766996736996, 25.032889989685685]
			}
		},
		{
			"type": "Feature",
			"properties": {
				"Name": "臺北市文湖社區公共托育家園",
				"Address": "臺北市內湖區文湖街15號",
				"Call": "(02)87978861"
			},
			"geometry": {
				"type": "Point",
				"coordinates": [121.56013003623121, 25.085819989948448]
			}
		},
		{
			"type": "Feature",
			"properties": {
				"Name": "臺北市麗山社區公共托育家園",
				"Address": "臺北市內湖區港華街100號",
				"Call": "(02)87510725"
			},
			"geometry": {
				"type": "Point",
				"coordinates": [121.57245998344035, 25.083500004878033]
			}
		},
		{
			"type": "Feature",
			"properties": {
				"Name": "臺北市星雲社區公共托育家園",
				"Address": "臺北市內湖區星雲街161巷3號",
				"Call": "(02)87922462"
			},
			"geometry": {
				"type": "Point",
				"coordinates": [121.5960999678802, 25.08115001259425]
			}
		},
		{
			"type": "Feature",
			"properties": {
				"Name": "臺北市新湖社區公共托育家園",
				"Address": "臺北市內湖區民權東路6段138號",
				"Call": "(02)27968015"
			},
			"geometry": {
				"type": "Point",
				"coordinates": [121.58872003741038, 25.06881998156608]
			}
		},
		{
			"type": "Feature",
			"properties": {
				"Name": "臺北市潭美社區公共托育家園",
				"Address": "臺北市內湖區行善路179號",
				"Call": "(02)27936532"
			},
			"geometry": {
				"type": "Point",
				"coordinates": [121.58122996873277, 25.059129998581085]
			}
		},
		{
			"type": "Feature",
			"properties": {
				"Name": "臺北市瑞光社區公共托育家園",
				"Address": "臺北市內湖區瑞光路162號",
				"Call": "(02)26591991"
			},
			"geometry": {
				"type": "Point",
				"coordinates": [121.57858825291216, 25.074219298098196]
			}
		},
		{
			"type": "Feature",
			"properties": {
				"Name": "臺北市興華社區公共托育家園",
				"Address": "臺北市文山區興隆路3段125巷6號",
				"Call": "(02)22305993"
			},
			"geometry": {
				"type": "Point",
				"coordinates": [121.55854996366361, 24.99858001014151]
			}
		},
		{
			"type": "Feature",
			"properties": {
				"Name": "臺北市萬隆社區公共托育家園",
				"Address": "臺北市文山區汀洲路4段207號",
				"Call": "(02)29320443"
			},
			"geometry": {
				"type": "Point",
				"coordinates": [121.53552061998104, 25.003754971650263]
			}
		},
		{
			"type": "Feature",
			"properties": {
				"Name": "臺北市興隆社區公共托育家園",
				"Address": "臺北市文山區福興路2號",
				"Call": "(02)89315966"
			},
			"geometry": {
				"type": "Point",
				"coordinates": [121.55191996207083, 25.002409995068987]
			}
		},
		{
			"type": "Feature",
			"properties": {
				"Name": "臺北市萬福社區公共托育家園",
				"Address": "臺北市文山區羅斯福路5段170巷32號",
				"Call": "(02)29349616"
			},
			"geometry": {
				"type": "Point",
				"coordinates": [121.536740000144, 25.004820001779507]
			}
		},
		{
			"type": "Feature",
			"properties": {
				"Name": "臺北市武功社區公共托育家園",
				"Address": "臺北市文山區興隆路１段68號",
				"Call": "(02)29300388"
			},
			"geometry": {
				"type": "Point",
				"coordinates": [121.54048997980567, 25.003880013247894]
			}
		},
		{
			"type": "Feature",
			"properties": {
				"Name": "臺北市萬芳社區公共托育家園",
				"Address": "臺北市文山區萬和街1號",
				"Call": "(02)22302627"
			},
			"geometry": {
				"type": "Point",
				"coordinates": [121.5675699811278, 25.00130999600576]
			}
		},
		{
			"type": "Feature",
			"properties": {
				"Name": "臺北市忠順社區公共托育家園",
				"Address": "臺北市文山區興隆路4段109巷30弄6號",
				"Call": "(02)29362221"
			},
			"geometry": {
				"type": "Point",
				"coordinates": [121.56217999829079, 24.986600007389953]
			}
		},
		{
			"type": "Feature",
			"properties": {
				"Name": "臺北市辛亥社區公共托育家園",
				"Address": "臺北市文山區辛亥路4段103號",
				"Call": "(02)86631134"
			},
			"geometry": {
				"type": "Point",
				"coordinates": [121.55854996366361, 25.006280003584124]
			}
		},
		{
			"type": "Feature",
			"properties": {
				"Name": "臺北市永建社區公共托育家園",
				"Address": "臺北市文山區木柵路1段311巷1號",
				"Call": "(02)29392022"
			},
			"geometry": {
				"type": "Point",
				"coordinates": [121.55453997736544, 24.988240010565264]
			}
		},
		{
			"type": "Feature",
			"properties": {
				"Name": "臺北市溪口社區公共托育家園",
				"Address": "臺北市文山區景福街225號",
				"Call": "(02)29330337"
			},
			"geometry": {
				"type": "Point",
				"coordinates": [121.53874998052544, 24.994070001409426]
			}
		},
		{
			"type": "Feature",
			"properties": {
				"Name": "臺北市北投社區公共托育家園",
				"Address": "臺北市北投區中央北路1段73號",
				"Call": "(02)28962977"
			},
			"geometry": {
				"type": "Point",
				"coordinates": [121.50029003690008, 25.13418998342668]
			}
		},
		{
			"type": "Feature",
			"properties": {
				"Name": "臺北市桃源社區公共托育家園",
				"Address": "臺北市北投區中央北路3段40巷45號",
				"Call": "(02)28931077"
			},
			"geometry": {
				"type": "Point",
				"coordinates": [121.48451001452491, 25.13963998069039]
			}
		},
		{
			"type": "Feature",
			"properties": {
				"Name": "臺北市文北社區公共托育家園",
				"Address": "臺北市北投區文林北路75巷61號",
				"Call": "(02)28280362"
			},
			"geometry": {
				"type": "Point",
				"coordinates": [121.51752104132343, 25.103911112163022]
			}
		},
		{
			"type": "Feature",
			"properties": {
				"Name": "臺北市洲美社區公共托育家園",
				"Address": "臺北市北投區福美路221號",
				"Call": "(02)28280372"
			},
			"geometry": {
				"type": "Point",
				"coordinates": [121.50402995827795, 25.100240006623906]
			}
		},
		{
			"type": "Feature",
			"properties": {
				"Name": "臺北市稻香社區公共托育家園",
				"Address": "臺北市北投區稻香路83號",
				"Call": "(02)28988036"
			},
			"geometry": {
				"type": "Point",
				"coordinates": [121.48936003515934, 25.140899990285234]
			}
		},
		{
			"type": "Feature",
			"properties": {
				"Name": "臺北市松民社區公共托育家園",
				"Address": "臺北市松山區民生東路5段163之1號",
				"Call": "(02)27652003"
			},
			"geometry": {
				"type": "Point",
				"coordinates": [121.56257998271036, 25.05906000968956]
			}
		},
		{
			"type": "Feature",
			"properties": {
				"Name": "臺北市松山社區公共托育家園",
				"Address": "臺北市松山區八德路4段746號",
				"Call": "(02)27480228"
			},
			"geometry": {
				"type": "Point",
				"coordinates": [121.57894003278528, 25.05113001682382]
			}
		},
		{
			"type": "Feature",
			"properties": {
				"Name": "臺北市興雅社區公共托育家園",
				"Address": "臺北市信義區基隆路1段35巷47號",
				"Call": "(02)27495657"
			},
			"geometry": {
				"type": "Point",
				"coordinates": [121.57037932589269, 25.048049496869485]
			}
		},
		{
			"type": "Feature",
			"properties": {
				"Name": "臺北市吳興社區公共托育家園",
				"Address": "臺北市信義區松仁路226號",
				"Call": "(02)27580675"
			},
			"geometry": {
				"type": "Point",
				"coordinates": [121.5685899749252, 25.026009997830727]
			}
		},
		{
			"type": "Feature",
			"properties": {
				"Name": "臺北市舊莊社區公共托育家園",
				"Address": "臺北市南港區舊莊街1段100號",
				"Call": "(02)27883976"
			},
			"geometry": {
				"type": "Point",
				"coordinates": [121.61956996732374, 25.040259987600265]
			}
		},
		{
			"type": "Feature",
			"properties": {
				"Name": "臺北市玉成社區公共托育家園",
				"Address": "臺北市南港區向陽路31號",
				"Call": "(02)26530800"
			},
			"geometry": {
				"type": "Point",
				"coordinates": [121.59476003683858, 25.053610012425864]
			}
		},
		{
			"type": "Feature",
			"properties": {
				"Name": "臺北市小彎社區公共托育家園",
				"Address": "臺北市南港區向陽路250號",
				"Call": "(02)27836583"
			},
			"geometry": {
				"type": "Point",
				"coordinates": [121.59388999528898, 25.056400012716836]
			}
		},
		{
			"type": "Feature",
			"properties": {
				"Name": "臺北市日善社區公共托育家園",
				"Address": "臺北市萬華區東園街19之1號",
				"Call": "(02)23038805"
			},
			"geometry": {
				"type": "Point",
				"coordinates": [121.49567001568886, 25.027910007642546]
			}
		},
		{
			"type": "Feature",
			"properties": {
				"Name": "臺北市雙園社區公共托育家園",
				"Address": "臺北市萬華區興義街2號",
				"Call": "(02)23052362"
			},
			"geometry": {
				"type": "Point",
				"coordinates": [121.49272000486621, 25.02761999379267]
			}
		},
		{
			"type": "Feature",
			"properties": {
				"Name": "臺北市東園社區公共托育家園",
				"Address": "臺北市萬華區東園街195號",
				"Call": "(02)23016925"
			},
			"geometry": {
				"type": "Point",
				"coordinates": [121.49786003935048, 25.02313999227394]
			}
		},
		{
			"type": "Feature",
			"properties": {
				"Name": "臺北市西園社區公共托育家園",
				"Address": "臺北市萬華區東園街73巷65號",
				"Call": "(02)23391231"
			},
			"geometry": {
				"type": "Point",
				"coordinates": [121.49886000039936, 25.026610016369546]
			}
		},
		{
			"type": "Feature",
			"properties": {
				"Name": "臺北市龍山社區公共托育家園",
				"Address": "臺北市萬華區和平西路3段235號",
				"Call": "(02)23083199"
			},
			"geometry": {
				"type": "Point",
				"coordinates": [121.49584997515001, 25.035629991924225]
			}
		},
		{
			"type": "Feature",
			"properties": {
				"Name": "臺北市亭中社區公共托育家園",
				"Address": "臺北市萬華區中華路2段606號",
				"Call": "(02)23019738"
			},
			"geometry": {
				"type": "Point",
				"coordinates": [121.51006314703531, 25.024628603698137]
			}
		},
		{
			"type": "Feature",
			"properties": {
				"Name": "臺北市老松社區公共托育家園",
				"Address": "臺北市萬華區桂林路64號",
				"Call": "(02)23028488"
			},
			"geometry": {
				"type": "Point",
				"coordinates": [121.50276001612787, 25.03805998947381]
			}
		}
	]
}
