{"type": "FeatureCollection", "features": [{"type": "Feature", "properties": {"Name": "娃娃藝術探索屋\n(朱厝崙社區發展協會承辦)", "Address": "臺北市中山區龍江路15號", "Call": "(02)27400040"}, "geometry": {"type": "Point", "coordinates": [121.54050003808948, 25.047490007731824]}}, {"type": "Feature", "properties": {"Name": "親親寶貝育兒友善園\n(順興社區發展協會承辦)", "Address": "臺北市文山區興隆路4段165巷14號", "Call": "(02)29395932"}, "geometry": {"type": "Point", "coordinates": [121.56266002988565, 24.98407998820025]}}, {"type": "Feature", "properties": {"Name": "文山寶貝妙妙屋\n(真善美幼兒教育協會承辦)", "Address": "臺北市文山區萬安街97號", "Call": "(02)22306651"}, "geometry": {"type": "Point", "coordinates": [121.57189998848918, 25.000659979414507]}}, {"type": "Feature", "properties": {"Name": "小小貓頭鷹玩樂屋\n(幸福名山社區發展協會)", "Address": "臺北市士林區雨聲街53巷1號", "Call": "(02)28360200"}, "geometry": {"type": "Point", "coordinates": [121.52850997705411, 25.102490002802796]}}, {"type": "Feature", "properties": {"Name": "安泰藍鵲育兒友善園\n(內湖區安泰里社區發展協會)", "Address": "臺北市內湖區康樂街136巷3弄8號", "Call": "(02)26308850"}, "geometry": {"type": "Point", "coordinates": [121.61890997626767, 25.072270014822607]}}, {"type": "Feature", "properties": {"Name": "FUN鬆玩親子友善園\n(社團法人台灣親子共學教育促進會)", "Address": "臺北市北投區明德路136巷18號", "Call": "(02)28234245"}, "geometry": {"type": "Point", "coordinates": [121.52127002436725, 25.109710006560064]}}, {"type": "Feature", "properties": {"Name": "益兒小手動動屋\n(中華民國聾人協會)", "Address": "臺北市北投區石牌路一段71巷17、19號", "Call": "(02)28221121"}, "geometry": {"type": "Point", "coordinates": [121.51073003258125, 25.114559985284956]}}, {"type": "Feature", "properties": {"Name": "久如FUNNY KIDS 童趣探索屋\n(南港區久如社區發展協會)\n", "Address": "臺北市南港區研究院路3段86巷1樓號", "Call": "(02)26519993"}, "geometry": {"type": "Point", "coordinates": [121.61372818459529, 25.034321033355994]}}, {"type": "Feature", "properties": {"Name": "和平Kids-Care館育兒友善園\n(財團法人中國基督教靈糧世界佈道會台北靈糧堂)", "Address": "臺北市大安區和平東路三段11巷15號", "Call": "(02)23623022\n"}, "geometry": {"type": "Point", "coordinates": [121.5470700252555, 25.02482001903691]}}, {"type": "Feature", "properties": {"Name": "大安小古意歡樂園\n(大安區古莊社區發展協會)", "Address": "臺北市大安區浦城街16巷11號", "Call": "(02)23651301"}, "geometry": {"type": "Point", "coordinates": [121.52609003778832, 25.023820016078574]}}, {"type": "Feature", "properties": {"Name": "小貓熊FUN KIDS 屋\n(台灣全人發展永續關懷協會)", "Address": "臺北市萬華區萬大路486巷11弄14號", "Call": "(02)23050601"}, "geometry": {"type": "Point", "coordinates": [121.49673996562916, 25.019739998979375]}}]}